[{"id":"1f59e8e2-025b-417a-9cb8-255cf89b993f","name":"Gyros Master","type":"Brza hrana","logoPath":"../images/girosMasterLogo.png","imagePath":"../images/girosMasterCover.jpg","isDeleted":false,"location":{"longitude":45.248001756873414,"latitude":19.842227869107603,"address":{"streetName":"Dimitrija Tucovića","streetNumber":"3","city":"Novi Sad","postalCode":"21000"}},"workTime":{"workTimeStart":"08:00","workTimeEnd":"22:00"}},{"id":"e7a8255e-d7ff-438b-9a12-271c67a493e4","name":"Kuća Kobasice","type":"Brza hrana","logoPath":"../images/kucaKobasiceLogo.png","imagePath":"../images/cover.jpg","isDeleted":false,"location":{"longitude":45.24886155275487,"latitude":19.848704417764406,"address":{"streetName":"Stražilovska","streetNumber":"8","city":"Novi Sad","postalCode":"21000"}},"workTime":{"workTimeStart":"08:00","workTimeEnd":"22:00"}},{"id":"096a19e2-5e50-4fa2-80f8-6d21d1e81a36","name":"Walter","type":"Roštilj","logoPath":"../images/walterLogo.png","imagePath":"../images/cover.jpg","isDeleted":false,"location":{"longitude":45.244807720188916,"latitude":19.841773984451038,"address":{"streetName":"Bulevar Oslobođenja","streetNumber":"119","city":"Novi Sad","postalCode":"21000"}},"workTime":{"workTimeStart":"08:00","workTimeEnd":"22:00"}}]